[{
    "address": "314 Lê Thị Riêng, Tân Thới An, Quận 12, Hồ Chí Minh, Vietnam",
    "area": "Hồ Chí Minh",
    "longitude": 106.6554024,
    "latitude": 10.8734765
  },
  {
    "address": "403 Cách Mạng Tháng Tám, Phường 13, Quận 10, Hồ Chí Minh, Vietnam",
    "area": "Hồ Chí Minh",
    "longitude": 106.6756289,
    "latitude": 10.7809243
  },
  {
    "address": "172 Ông Ích Khiêm, Phường 5, Quận 11, Hồ Chí Minh, Vietnam",
    "area": "Hồ Chí Minh",
    "longitude": 106.6429388,
    "latitude": 10.7667661
  },
  {
    "address": "592 Nguyễn Ảnh Thủ, Trung Mỹ Tây, Quận 12, Hồ Chí Minh, Vietnam",
    "area": "Hồ Chí Minh",
    "longitude": 106.6098683,
    "latitude": 10.8592969
  },
  {
    "address": "28-30 Nguyen Thai Binh Street, Nguyen Thai Binh Ward, District 1, Ho Chi Minh City, Phường Nguyễn Thái Bình, Quận 1, Hồ Chí Minh, Vietnam",
    "area": "Hồ Chí Minh",
    "longitude": 106.7003882,
    "latitude": 10.7698733
  },
  {
    "address": "Đồng Văn Cống, Phường Thạnh Mỹ Lợi, Quận 2, Hồ Chí Minh, Vietnam",
    "area": "Hồ Chí Minh",
    "longitude": 106.7594779,
    "latitude": 10.7753988
  },
  {
    "address": "Đường số 50, Bình Trưng Đông, Quận 2, Hồ Chí Minh, Vietnam",
    "area": "Hồ Chí Minh",
    "longitude": 106.7749,
    "latitude": 10.7888971
  },
  {
    "address": "Đường Số 1, Liên Tỉnh Lộ 25B, Phường Thạnh Mỹ Lợi, Quận 2, Phường Thạnh Mỹ Lợi, Quận 2, Hồ Chí Minh, Vietnam",
    "area": "Hồ Chí Minh",
    "longitude": 106.7599118,
    "latitude": 10.7757492
  },
  {
    "address": "34, 31D-Khu C, An Phú, Quận 2, Hồ Chí Minh, Vietnam",
    "area": "Hồ Chí Minh",
    "longitude": 106.7404785,
    "latitude": 10.7918944
  },
  {
    "address": "63 đường số 5, phường Cát Lái, Quận 2, Cát Lái, Hồ Chí Minh, Vietnam",
    "area": "Hồ Chí Minh",
    "longitude": 106.7712947,
    "latitude": 10.775406
  },
  {
    "address": "386/79 Đ. Lê Văn Sỹ, Phường 14, Quận 3, Hồ Chí Minh, Vietnam",
    "area": "Hồ Chí Minh",
    "longitude": 106.6772974,
    "latitude": 10.7898918
  },
  {
    "address": "2 Bà Huyện Thanh Quan, Phường 6, Quận 3, Hồ Chí Minh, Vietnam",
    "area": "Hồ Chí Minh",
    "longitude": 106.6903125,
    "latitude": 10.7752899
  },
  {
    "address": "9 Huỳnh Tịnh Của, Phường 8, Quận 3, Hồ Chí Minh, Vietnam",
    "area": "Hồ Chí Minh",
    "longitude": 106.6883543,
    "latitude": 10.7883648
  },
  {
    "address": "139 Nguyễn Đình Chiểu, Phường 6, Quận 3, Hồ Chí Minh, Vietnam",
    "area": "Hồ Chí Minh",
    "longitude": 106.6890399,
    "latitude": 10.777158
  },
  {
    "address": "243 Cách Mạng Tháng Tám, Phường 4, Quận 3, Hồ Chí Minh, Vietnam",
    "area": "Hồ Chí Minh",
    "longitude": 106.6829741,
    "latitude": 10.7770139
  },
  {
    "address": "63, 65 Bến Vân Đồn, Phường 12, Quận 4, Hồ Chí Minh, Vietnam",
    "area": "Hồ Chí Minh",
    "longitude": 106.7022376,
    "latitude": 10.7653075
  },
  {
    "address": "Hẻm 42 Hoàng Diệu, Phường 12, Quận 4, Hồ Chí Minh, Vietnam",
    "area": "Hồ Chí Minh",
    "longitude": 106.7060284,
    "latitude": 10.7653624
  },
  {
    "address": "18 Đường Đoàn Như Hài, Phường 12, Quận 4, Hồ Chí Minh, Vietnam",
    "area": "Hồ Chí Minh",
    "longitude": 106.7051618,
    "latitude": 10.7663214
  },
  {
    "address": "64 Nguyễn Khoái, Phường 2, Quận 4, Hồ Chí Minh, Vietnam",
    "area": "Hồ Chí Minh",
    "longitude": 106.694483,
    "latitude": 10.7550974
  },
  {
    "address": "14 Đường Đoàn Như Hài, Phường 12, Quận 4, Hồ Chí Minh, Vietnam",
    "area": "Hồ Chí Minh",
    "longitude": 106.7057955,
    "latitude": 10.7667587
  },
  {
    "address": "3 Mạc Cửu, Phường 13, Quận 5, Hồ Chí Minh, Vietnam",
    "area": "Hồ Chí Minh",
    "longitude": 106.659248,
    "latitude": 10.750223
  },
  {
    "address": "642 A Đ. Nguyễn Trãi, Phường 11, Quận 5, Hồ Chí Minh 700000, Vietnam",
    "area": "Hồ Chí Minh",
    "longitude": 106.6657832,
    "latitude": 10.7540801
  },
  {
    "address": "642 Đ. Nguyễn Trãi, Phường 11, Quận 5, Hồ Chí Minh, Vietnam",
    "area": "Hồ Chí Minh",
    "longitude": 106.6662972,
    "latitude": 10.7541276
  },
  {
    "address": "203 An Dương Vương, Phường 8, Quận 5, phường 8 Quận 5 Hồ Chí Minh, Vietnam",
    "area": "phường 8 Quận 5 Hồ Chí Minh",
    "longitude": 106.6675406,
    "latitude": 10.7558049
  },
  {
    "address": "660 Võ Văn Kiệt, Phường 1, Quận 5, Hồ Chí Minh, Vietnam",
    "area": "Hồ Chí Minh",
    "longitude": 106.6836549,
    "latitude": 10.7520489
  },
  {
    "address": "107 Cao Văn Lầu, Phường 1, Quận 6, Hồ Chí Minh, Vietnam",
    "area": "Hồ Chí Minh",
    "longitude": 106.6495791,
    "latitude": 10.7464601
  },
  {
    "address": "88 Tháp Mười, Phường 2, Quận 6, Hồ Chí Minh, Vietnam",
    "area": "Hồ Chí Minh",
    "longitude": 106.6504626,
    "latitude": 10.7499949
  },
  {
    "address": "Hẻm 45/67 Bình Tiên, Phường 7, Quận 6, Hồ Chí Minh, Vietnam",
    "area": "Hồ Chí Minh",
    "longitude": 106.6424917,
    "latitude": 10.7405803
  },
  {
    "address": "114 Đường Phạm Văn Chí, Phường 1, Quận 6, Hồ Chí Minh, Vietnam",
    "area": "Hồ Chí Minh",
    "longitude": 106.6490232,
    "latitude": 10.7462002
  },
  {
    "address": "2D Chợ Lớn, Phường 11, Quận 6, Phường 11 Quận 6 Hồ Chí Minh, Vietnam",
    "area": "Phường 11 Quận 6 Hồ Chí Minh",
    "longitude": 106.6348488,
    "latitude": 10.7465793
  },
  {
    "address": "3 Tân Phú, P, Quận 7, Hồ Chí Minh, Vietnam",
    "area": "Hồ Chí Minh",
    "longitude": 106.725198,
    "latitude": 10.7327717
  },
  {
    "address": "1 Tân Phú, Hồ Chí Minh, Vietnam",
    "area": "Hồ Chí Minh",
    "longitude": 106.7251448,
    "latitude": 10.7328615
  },
  {
    "address": "504, 506 Huỳnh Tấn Phát, Bình Thuận, Quận 7, Hồ Chí Minh, Vietnam",
    "area": "Hồ Chí Minh",
    "longitude": 106.7292689,
    "latitude": 10.741525
  },
  {
    "address": "People's Committee Of District 7, 1362, Huynh Tan Phat Street, Phu My Ward, District 7, Tân Phú, Quận 7, Hồ Chí Minh, Vietnam",
    "area": "Hồ Chí Minh",
    "longitude": 106.7262769,
    "latitude": 10.7321119
  },
  {
    "address": "1364 Huỳnh Tấn Phát, KP1, Quận 7, Hồ Chí Minh, Vietnam",
    "area": "Hồ Chí Minh",
    "longitude": 106.7370286,
    "latitude": 10.713834
  },
  {
    "address": "175 Phạm Hùng, Phường 4, Quận 8, Phường 5, Quận 8, Hồ Chí Minh, Vietnam",
    "area": "Hồ Chí Minh",
    "longitude": 106.6693443,
    "latitude": 10.7395539
  },
  {
    "address": "993 Phạm Thế Hiển, Phường 5, 8, Hồ Chí Minh, Vietnam",
    "area": "Hồ Chí Minh",
    "longitude": 106.667443,
    "latitude": 10.7428452
  },
  {
    "address": "126 Đường Lê Quyên, Phường 5, Quận 8, Hồ Chí Minh, Vietnam",
    "area": "Hồ Chí Minh",
    "longitude": 106.6664351,
    "latitude": 10.740894
  },
  {
    "address": "993 Phạm Thế Hiển, Phường 5, Quận 8, Hồ Chí Minh, Vietnam",
    "area": "Hồ Chí Minh",
    "longitude": 106.6678169,
    "latitude": 10.7422643
  },
  {
    "address": "250 Tùng Thiện Vương, Phường 11, Quận 8, Hồ Chí Minh, Vietnam",
    "area": "Hồ Chí Minh",
    "longitude": 106.6615428,
    "latitude": 10.7471976
  },
  {
    "address": "Dong Nai, Vietnam",
    "area": "Dong Nai",
    "longitude": 107.1675976,
    "latitude": 11.0686305
  },
  {
    "address": "Đồng Nai, Cư xá Bắc Hải, Phường 15, Quận 10, Hồ Chí Minh, Vietnam",
    "area": "Hồ Chí Minh",
    "longitude": 106.6626316,
    "latitude": 10.7788966
  },
  {
    "address": "Kp5 Đường Nguyễn Khuyến, Trảng Dài, Thành phố Biên Hòa, Đồng Nai, Vietnam",
    "area": "Đồng Nai",
    "longitude": 106.8691285,
    "latitude": 10.9846076
  },
  {
    "address": "4 Lê Quý Đôn, Kp3, Thành phố Biên Hòa, Đồng Nai, Vietnam",
    "area": "Đồng Nai",
    "longitude": 106.8613505,
    "latitude": 10.9591332
  },
  {
    "address": "1048A Phạm Văn Thuận, Tân Mai, Thành phố Biên Hòa, Đồng Nai, Vietnam",
    "area": "Đồng Nai",
    "longitude": 106.8468985,
    "latitude": 10.9580619
  },
  {
    "address": "Long An, Cần Đước District, Long An Province, Vietnam",
    "area": "Long An Province",
    "longitude": 106.6497623,
    "latitude": 10.5607168
  },
  {
    "address": "2523 South Blvd, Charlotte, NC 28203, USA",
    "area": "North Carolina",
    "longitude": -80.8646618,
    "latitude": 35.2023634
  },
  {
    "address": "Long An Province, Vietnam",
    "area": "Long An Province",
    "longitude": 106.2431205,
    "latitude": 10.695572
  },
  {
    "address": "Long An, Mỹ Tho, Tien Giang, Vietnam",
    "area": "Tien Giang",
    "longitude": 106.3384114,
    "latitude": 10.4032411
  },
  {
    "address": "211 Nguyễn Thông, Phường 3, Tân An, Long An, Vietnam",
    "area": "Long An",
    "longitude": 106.4261931,
    "latitude": 10.5327197
  },
  {
    "address": "Tien Giang, Vietnam",
    "area": "Tien Giang",
    "longitude": 106.3420504,
    "latitude": 10.4493324
  },
  {
    "address": "Cái Bè, Cái Bè District, Tien Giang, Vietnam",
    "area": "Tien Giang",
    "longitude": 106.0298196,
    "latitude": 10.3367347
  },
  {
    "address": "Tiền Giang, Phường 2, Tân Bình, Hồ Chí Minh, Vietnam",
    "area": "Hồ Chí Minh",
    "longitude": 106.6655128,
    "latitude": 10.8082688
  },
  {
    "address": "02 Đường Hùng Vương, Phường 1, Thành phố Mỹ Tho, Tiền Giang, Vietnam",
    "area": "Tiền Giang",
    "longitude": 106.3643284,
    "latitude": 10.3549773
  },
  {
    "address": "Tiền Giang, Lê Lợi, Bắc Giang, Vietnam",
    "area": "Bắc Giang",
    "longitude": 106.1992451,
    "latitude": 21.2694124
  },
  {
    "address": "Ishikawa, Japan",
    "area": "Ishikawa",
    "longitude": 136.5289653,
    "latitude": 36.32603169999999
  },
  {
    "address": "Ishikawa, Uruma, Okinawa 904-1106, Japan",
    "area": "Okinawa",
    "longitude": 127.8220414,
    "latitude": 26.4376186
  },
  {
    "address": "Ishikawacho, Ota City, Tokyo 145-0061, Japan",
    "area": "Tokyo",
    "longitude": 139.6822041,
    "latitude": 35.6029663
  },
  {
    "address": "Ishikawa, Fujisawa, Kanagawa 252-0815, Japan",
    "area": "Kanagawa",
    "longitude": 139.4542268,
    "latitude": 35.3791036
  },
  {
    "address": "Ishikawacho, Naka Ward, Yokohama, Kanagawa 231-0868, Japan",
    "area": "Kanagawa",
    "longitude": 139.6410647,
    "latitude": 35.4373853
  }
]